% program	: ../bin/OSPtoRTK V1.2
% inp file	: 20180221_200536.OSP
% obs start	: 2018/02/21 19:05:58.000 GPST
% obs end	: 2018/02/21 19:10:53.000 GPST
% pos mode	: Single
% elev mask	:  5.0
% snr mask	:  8.0
% ionos opt	: Broadcast
% tropo opt	: OFF
% ephemeris	: Broadcast
%
% (x/y/z-ecef=WGS84,Q=1:fix,2:float,3:sbas,4:dgps,5:single,6:ppp,ns=# of satellites)
%  GPST                      x-ecef(m)      y-ecef(m)      z-ecef(m)   Q  ns   sdx(m)   sdy(m)   sdz(m)  sdxy(m)  sdyz(m)  sdzx(m) age(s)  ratio
2018/02/21 19:05:58.000   4848578.0000   -327596.0000   4118308.0000   5   9   0.0000   0.0000   0.0000   0.0000   0.0000   0.0000   0.00    0.0
2018/02/21 19:06:03.000   4848578.0000   -327596.0000   4118308.0000   5   9   0.0000   0.0000   0.0000   0.0000   0.0000   0.0000   0.00    0.0
2018/02/21 19:06:08.000   4848578.0000   -327596.0000   4118308.0000   5   9   0.0000   0.0000   0.0000   0.0000   0.0000   0.0000   0.00    0.0
2018/02/21 19:06:13.000   4848578.0000   -327596.0000   4118308.0000   5   9   0.0000   0.0000   0.0000   0.0000   0.0000   0.0000   0.00    0.0
2018/02/21 19:06:18.000   4848578.0000   -327596.0000   4118308.0000   5   9   0.0000   0.0000   0.0000   0.0000   0.0000   0.0000   0.00    0.0
2018/02/21 19:06:23.000   4848578.0000   -327596.0000   4118308.0000   5   9   0.0000   0.0000   0.0000   0.0000   0.0000   0.0000   0.00    0.0
2018/02/21 19:06:28.000   4848578.0000   -327596.0000   4118308.0000   5  10   0.0000   0.0000   0.0000   0.0000   0.0000   0.0000   0.00    0.0
2018/02/21 19:06:33.000   4848578.0000   -327596.0000   4118308.0000   5  10   0.0000   0.0000   0.0000   0.0000   0.0000   0.0000   0.00    0.0
2018/02/21 19:06:38.000   4848579.0000   -327596.0000   4118308.0000   5  10   0.0000   0.0000   0.0000   0.0000   0.0000   0.0000   0.00    0.0
2018/02/21 19:06:43.000   4848579.0000   -327596.0000   4118308.0000   5  10   0.0000   0.0000   0.0000   0.0000   0.0000   0.0000   0.00    0.0
2018/02/21 19:06:48.000   4848579.0000   -327596.0000   4118308.0000   5  10   0.0000   0.0000   0.0000   0.0000   0.0000   0.0000   0.00    0.0
2018/02/21 19:06:53.000   4848579.0000   -327596.0000   4118308.0000   5  10   0.0000   0.0000   0.0000   0.0000   0.0000   0.0000   0.00    0.0
2018/02/21 19:06:58.000   4848579.0000   -327596.0000   4118308.0000   5  10   0.0000   0.0000   0.0000   0.0000   0.0000   0.0000   0.00    0.0
2018/02/21 19:07:03.000   4848579.0000   -327596.0000   4118308.0000   5  10   0.0000   0.0000   0.0000   0.0000   0.0000   0.0000   0.00    0.0
2018/02/21 19:07:08.000   4848579.0000   -327596.0000   4118308.0000   5   9   0.0000   0.0000   0.0000   0.0000   0.0000   0.0000   0.00    0.0
2018/02/21 19:07:13.000   4848579.0000   -327596.0000   4118308.0000   5   9   0.0000   0.0000   0.0000   0.0000   0.0000   0.0000   0.00    0.0
2018/02/21 19:07:18.000   4848579.0000   -327596.0000   4118308.0000   5   9   0.0000   0.0000   0.0000   0.0000   0.0000   0.0000   0.00    0.0
2018/02/21 19:07:23.000   4848579.0000   -327596.0000   4118308.0000   5   9   0.0000   0.0000   0.0000   0.0000   0.0000   0.0000   0.00    0.0
2018/02/21 19:07:28.000   4848579.0000   -327596.0000   4118308.0000   5  10   0.0000   0.0000   0.0000   0.0000   0.0000   0.0000   0.00    0.0
2018/02/21 19:07:33.000   4848579.0000   -327596.0000   4118308.0000   5  10   0.0000   0.0000   0.0000   0.0000   0.0000   0.0000   0.00    0.0
2018/02/21 19:07:38.000   4848579.0000   -327596.0000   4118308.0000   5  10   0.0000   0.0000   0.0000   0.0000   0.0000   0.0000   0.00    0.0
2018/02/21 19:07:43.000   4848579.0000   -327596.0000   4118308.0000   5   9   0.0000   0.0000   0.0000   0.0000   0.0000   0.0000   0.00    0.0
2018/02/21 19:07:48.000   4848579.0000   -327596.0000   4118308.0000   5  10   0.0000   0.0000   0.0000   0.0000   0.0000   0.0000   0.00    0.0
2018/02/21 19:07:53.000   4848579.0000   -327596.0000   4118308.0000   5   9   0.0000   0.0000   0.0000   0.0000   0.0000   0.0000   0.00    0.0
2018/02/21 19:07:58.000   4848579.0000   -327596.0000   4118308.0000   5   9   0.0000   0.0000   0.0000   0.0000   0.0000   0.0000   0.00    0.0
2018/02/21 19:08:03.000   4848579.0000   -327596.0000   4118308.0000   5  10   0.0000   0.0000   0.0000   0.0000   0.0000   0.0000   0.00    0.0
2018/02/21 19:08:08.000   4848579.0000   -327596.0000   4118308.0000   5  10   0.0000   0.0000   0.0000   0.0000   0.0000   0.0000   0.00    0.0
2018/02/21 19:08:13.000   4848579.0000   -327596.0000   4118308.0000   5  10   0.0000   0.0000   0.0000   0.0000   0.0000   0.0000   0.00    0.0
2018/02/21 19:08:18.000   4848579.0000   -327596.0000   4118308.0000   5  10   0.0000   0.0000   0.0000   0.0000   0.0000   0.0000   0.00    0.0
2018/02/21 19:08:23.000   4848579.0000   -327596.0000   4118308.0000   5  10   0.0000   0.0000   0.0000   0.0000   0.0000   0.0000   0.00    0.0
2018/02/21 19:08:28.000   4848579.0000   -327596.0000   4118308.0000   5  10   0.0000   0.0000   0.0000   0.0000   0.0000   0.0000   0.00    0.0
2018/02/21 19:08:33.000   4848578.0000   -327596.0000   4118307.0000   5  10   0.0000   0.0000   0.0000   0.0000   0.0000   0.0000   0.00    0.0
2018/02/21 19:08:38.000   4848577.0000   -327596.0000   4118307.0000   5  10   0.0000   0.0000   0.0000   0.0000   0.0000   0.0000   0.00    0.0
2018/02/21 19:08:43.000   4848577.0000   -327596.0000   4118307.0000   5  10   0.0000   0.0000   0.0000   0.0000   0.0000   0.0000   0.00    0.0
2018/02/21 19:08:48.000   4848577.0000   -327596.0000   4118307.0000   5   9   0.0000   0.0000   0.0000   0.0000   0.0000   0.0000   0.00    0.0
2018/02/21 19:08:53.000   4848577.0000   -327596.0000   4118307.0000   5  10   0.0000   0.0000   0.0000   0.0000   0.0000   0.0000   0.00    0.0
2018/02/21 19:08:58.000   4848577.0000   -327596.0000   4118307.0000   5   9   0.0000   0.0000   0.0000   0.0000   0.0000   0.0000   0.00    0.0
2018/02/21 19:09:03.000   4848577.0000   -327596.0000   4118307.0000   5  10   0.0000   0.0000   0.0000   0.0000   0.0000   0.0000   0.00    0.0
2018/02/21 19:09:08.000   4848577.0000   -327596.0000   4118307.0000   5  10   0.0000   0.0000   0.0000   0.0000   0.0000   0.0000   0.00    0.0
2018/02/21 19:09:13.000   4848577.0000   -327596.0000   4118307.0000   5  10   0.0000   0.0000   0.0000   0.0000   0.0000   0.0000   0.00    0.0
2018/02/21 19:09:18.000   4848577.0000   -327596.0000   4118307.0000   5  10   0.0000   0.0000   0.0000   0.0000   0.0000   0.0000   0.00    0.0
2018/02/21 19:09:23.000   4848577.0000   -327596.0000   4118307.0000   5  10   0.0000   0.0000   0.0000   0.0000   0.0000   0.0000   0.00    0.0
2018/02/21 19:09:28.000   4848577.0000   -327596.0000   4118307.0000   5  10   0.0000   0.0000   0.0000   0.0000   0.0000   0.0000   0.00    0.0
2018/02/21 19:09:33.000   4848577.0000   -327596.0000   4118307.0000   5  10   0.0000   0.0000   0.0000   0.0000   0.0000   0.0000   0.00    0.0
2018/02/21 19:09:38.000   4848577.0000   -327596.0000   4118307.0000   5  10   0.0000   0.0000   0.0000   0.0000   0.0000   0.0000   0.00    0.0
2018/02/21 19:09:43.000   4848578.0000   -327596.0000   4118307.0000   5  10   0.0000   0.0000   0.0000   0.0000   0.0000   0.0000   0.00    0.0
2018/02/21 19:09:48.000   4848578.0000   -327596.0000   4118307.0000   5  10   0.0000   0.0000   0.0000   0.0000   0.0000   0.0000   0.00    0.0
2018/02/21 19:09:53.000   4848578.0000   -327596.0000   4118307.0000   5  10   0.0000   0.0000   0.0000   0.0000   0.0000   0.0000   0.00    0.0
2018/02/21 19:09:58.000   4848578.0000   -327596.0000   4118307.0000   5  10   0.0000   0.0000   0.0000   0.0000   0.0000   0.0000   0.00    0.0
2018/02/21 19:10:03.000   4848578.0000   -327596.0000   4118307.0000   5  10   0.0000   0.0000   0.0000   0.0000   0.0000   0.0000   0.00    0.0
2018/02/21 19:10:08.000   4848578.0000   -327596.0000   4118307.0000   5  10   0.0000   0.0000   0.0000   0.0000   0.0000   0.0000   0.00    0.0
2018/02/21 19:10:13.000   4848578.0000   -327596.0000   4118307.0000   5  10   0.0000   0.0000   0.0000   0.0000   0.0000   0.0000   0.00    0.0
2018/02/21 19:10:18.000   4848578.0000   -327596.0000   4118307.0000   5  10   0.0000   0.0000   0.0000   0.0000   0.0000   0.0000   0.00    0.0
2018/02/21 19:10:23.000   4848578.0000   -327596.0000   4118307.0000   5  10   0.0000   0.0000   0.0000   0.0000   0.0000   0.0000   0.00    0.0
2018/02/21 19:10:28.000   4848578.0000   -327596.0000   4118307.0000   5  10   0.0000   0.0000   0.0000   0.0000   0.0000   0.0000   0.00    0.0
2018/02/21 19:10:33.000   4848578.0000   -327596.0000   4118307.0000   5   9   0.0000   0.0000   0.0000   0.0000   0.0000   0.0000   0.00    0.0
2018/02/21 19:10:38.000   4848578.0000   -327596.0000   4118307.0000   5   9   0.0000   0.0000   0.0000   0.0000   0.0000   0.0000   0.00    0.0
2018/02/21 19:10:43.000   4848578.0000   -327596.0000   4118307.0000   5   9   0.0000   0.0000   0.0000   0.0000   0.0000   0.0000   0.00    0.0
2018/02/21 19:10:48.000   4848578.0000   -327595.0000   4118307.0000   5  10   0.0000   0.0000   0.0000   0.0000   0.0000   0.0000   0.00    0.0
2018/02/21 19:10:53.000   4848578.0000   -327595.0000   4118307.0000   5   9   0.0000   0.0000   0.0000   0.0000   0.0000   0.0000   0.00    0.0
