     3.02           OBSERVATION DATA    M: Mixed            RINEX VERSION / TYPE
OSPtoRINEX V2.1     RUNBY               20180222 200426 LCL PGM / RUN BY / DATE 
MRKNAM                                                      MARKER NAME         
MRKNUM                                                      MARKER NUMBER       
OBSERVER            AGENCY                                  OBSERVER / AGENCY   
Antenna#            AntennaType                             ANT # / TYPE        
  4332195.0000  1053894.0000  4545879.0000                  APPROX POSITION XYZ 
        0.0000        0.0000        0.0000                  ANTENNA: DELTA H/E/N
G    4 C1C L1C D1C S1C                                      SYS / # / OBS TYPES 
R    4 C1C L1C D1C S1C                                      SYS / # / OBS TYPES 
S    4 C1C L1C D1C S1C                                      SYS / # / OBS TYPES 
   166.000                                                  INTERVAL            
  2016    02    06    21    29   13.0000000                 TIME OF FIRST OBS   
                                                            END OF HEADER       
> 2016 02 06 21 29 13.0000000  0 16      0.045843380000   
G02  22809945.248 5 119866989.198 5      1714.146 5        30.000 5
G05  25341224.131 3         0.000 3         0.000 3        18.000 3
G12  22537708.951 4 118436618.029 4      2674.463 4        28.000 4
G14  24113477.665 1         0.000 1         0.000 1         5.000 1
G24  25327467.517 2         0.000 2         0.000 2        13.000 2
G25  20435573.320 4 107390051.122 4       826.189 4        29.000 4
G26  25004768.719 3         0.000 3         0.000 3        18.000 3
G29  20197010.364 3         0.000 3         0.000 3        23.000 3
G31  21715453.498 4 114115607.908 4     -1731.905 4        27.000 4
R02  24362751.854 3         0.000 3         0.000 3        18.000 3
R09  21999646.970 5         0.000 5         0.000 5        34.000 5
R10  19148165.452 2         0.000 2         0.000 2        16.000 2
R17  21926856.013 6         0.000 6         0.000 6        41.000 6
R19  22116661.730 5         0.000 5         0.000 5        32.000 5
R79  19237729.776 2         0.000 2         0.000 2        17.000 2
R81  20830151.363 3         0.000 3         0.000 3        19.000 3
> 2016 02 06 21 29 14.0000000  0 16      0.045903289000   
G02  22810271.696 5 119868704.477 5      1714.454 5        30.000 5
G05  25340744.156 3         0.000 3         0.000 3        19.000 3
G12  22538217.981 4 118439293.367 4      2674.452 4        28.000 4
G14  24114000.431 1         0.000 1         0.000 1         5.000 1
G24  25328194.155 2         0.000 2         0.000 2        13.000 2
G25  20435730.822 4 107390878.437 4       826.538 4        29.000 4
G26  25004161.867 3         0.000 3         0.000 3        18.000 3
G29  20196840.087 3         0.000 3         0.000 3        23.000 3
G31  21715123.601 4 114113876.965 4     -1731.566 4        27.000 4
R02  24363111.669 3         0.000 3         0.000 3        18.000 3
R09  22000346.982 5         0.000 5         0.000 5        34.000 5
R10  19148268.210 2         0.000 2         0.000 2        17.000 2
R17  21927547.164 6         0.000 6         0.000 6        41.000 6
R19  22117370.146 5         0.000 5         0.000 5        32.000 5
R79  19237834.828 2         0.000 2         0.000 2        17.000 2
R81  20829588.885 3         0.000 3         0.000 3        19.000 3
> 2016 02 06 21 29 15.0000000  0 15      0.045963199000   
G02  22810597.944 5 119870418.902 5      1715.131 5        30.000 5
G05  25340260.790 3         0.000 3         0.000 3        20.000 3
G12  22538726.834 4 118441967.647 4      2674.925 4        28.000 4
G24  25328899.637 2         0.000 2         0.000 2        13.000 2
G25  20435888.079 4 107391704.861 4       827.184 4        29.000 4
G26  25003547.713 3         0.000 3         0.000 3        18.000 3
G29  20196664.545 3         0.000 3         0.000 3        22.000 3
G31  21714793.667 4 114112145.335 4     -1730.714 4        27.000 4
R02  24363381.482 3         0.000 3         0.000 3        18.000 3
R09  22001046.357 5         0.000 5         0.000 5        34.000 5
R10  19148370.681 2         0.000 2         0.000 2        17.000 2
R17  21928238.549 6         0.000 6         0.000 6        41.000 6
R19  22118076.743 5         0.000 5         0.000 5        32.000 5
R79  19237940.330 2         0.000 2         0.000 2        17.000 2
R81  20828995.911 3         0.000 3         0.000 3        19.000 3
> 2016 02 06 21 29 16.0000000  0 15      0.046023109000   
G02  22810924.244 5 119872133.858 5      1715.665 5        30.000 5
G05  25339768.442 3         0.000 3         0.000 3        20.000 3
G12  22539235.727 4 118444642.147 4      2675.150 4        28.000 4
G24  25329638.406 2         0.000 2         0.000 2        13.000 2
G25  20436045.505 4 107392531.714 4       827.615 4        29.000 4
G26  25002930.265 3         0.000 3         0.000 3        18.000 3
G29  20196493.598 3         0.000 3         0.000 3        22.000 3
G31  21714464.052 4 114110414.158 4     -1730.263 4        27.000 4
R02  24363801.499 3         0.000 3         0.000 3        18.000 3
R09  22001746.094 5         0.000 5         0.000 5        34.000 5
R10  19148485.411 3         0.000 3         0.000 3        18.000 3
R17  21928929.706 6         0.000 6         0.000 6        41.000 6
R19  22118787.922 5         0.000 5         0.000 5        32.000 5
R79  19238038.820 2         0.000 2         0.000 2        17.000 2
R81  20828420.590 3         0.000 3         0.000 3        19.000 3
> 2016 02 06 21 29 17.0000000  0 15      0.046083018000   
G02  22811250.952 5 119873851.117 5      1716.435 5        30.000 5
G05  25339291.951 3         0.000 3         0.000 3        23.000 3
G12  22539744.995 4 118447318.668 4      2675.633 4        28.000 4
G24  25330367.134 2         0.000 2         0.000 2        13.000 2
G25  20436203.313 4 107393360.791 4       828.303 4        29.000 4
G26  25002306.782 3         0.000 3         0.000 3        18.000 3
G29  20196322.498 3         0.000 3         0.000 3        23.000 3
G31  21714134.369 4 114108685.332 4     -1729.442 4        27.000 4
R02  24364116.249 3         0.000 3         0.000 3        18.000 3
R09  22002447.308 5         0.000 5         0.000 5        34.000 5
R10  19148579.428 3         0.000 3         0.000 3        18.000 3
R17  21929621.196 6         0.000 6         0.000 6        41.000 6
R19  22119497.625 5         0.000 5         0.000 5        32.000 5
R79  19238148.618 2         0.000 2         0.000 2        17.000 2
R81  20827861.839 3         0.000 3         0.000 3        19.000 3
> 2016 02 06 21 29 18.0000000  0 15      0.046142928000   
G02  22811577.487 5 119875567.560 5      1717.153 5        30.000 5
G05  25338802.666 3         0.000 3         0.000 3        23.000 3
G12  22540254.045 4 118449994.104 4      2676.084 4        28.000 4
G24  25331109.251 2         0.000 2         0.000 2        13.000 2
G25  20436360.874 4 107394188.955 4       828.919 4        29.000 4
G26  25001694.521 3         0.000 3         0.000 3        18.000 3
G29  20196157.281 3         0.000 3         0.000 3        23.000 3
G31  21713804.629 4 114106955.816 4     -1728.600 4        27.000 4
R02  24364484.894 3         0.000 3         0.000 3        19.000 3
R09  22003146.664 5         0.000 5         0.000 5        34.000 5
R10  19148674.375 3         0.000 3         0.000 3        19.000 3
R17  21930312.899 6         0.000 6         0.000 6        41.000 6
R19  22120209.967 5         0.000 5         0.000 5        32.000 5
R79  19238269.408 2         0.000 2         0.000 2        17.000 2
R81  20827285.213 3         0.000 3         0.000 3        19.000 3
> 2016 02 06 21 29 19.0000000  0 15      0.046202838000   
G02  22811904.115 5 119877284.248 5      1717.441 5        30.000 5
G05  25338318.553 4         0.000 4         0.000 4        24.000 4
G12  22540763.133 4 118452669.453 4      2676.043 4        28.000 4
G24  25331828.609 2         0.000 2         0.000 2        13.000 2
G25  20436518.536 4 107395017.193 4       829.042 4        29.000 4
G26  25001088.561 3         0.000 3         0.000 3        18.000 3
G29  20195984.376 3         0.000 3         0.000 3        23.000 3
G31  21713475.325 4 114105226.570 4     -1728.292 4        27.000 4
R02  24364806.779 3         0.000 3         0.000 3        19.000 3
R09  22003845.249 5         0.000 5         0.000 5        34.000 5
R10  19148778.221 3         0.000 3         0.000 3        19.000 3
R17  21931004.014 6         0.000 6         0.000 6        41.000 6
R19  22120919.082 5         0.000 5         0.000 5        32.000 5
R79  19238374.944 3         0.000 3         0.000 3        18.000 3
R81  20826702.780 3         0.000 3         0.000 3        20.000 3
> 2016 02 06 21 29 20.0000000  0 15      0.046262748000   
G02  22812230.845 5 119879001.179 5      1717.636 5        30.000 5
G05  25337840.950 4         0.000 4         0.000 4        24.000 4
G12  22541272.295 4 118455345.063 4      2676.259 4        28.000 4
G24  25332552.124 2         0.000 2         0.000 2        12.000 2
G25  20436676.241 4 107395845.842 4       829.412 4        29.000 4
G26  25000479.536 3         0.000 3         0.000 3        18.000 3
G29  20195814.978 3         0.000 3         0.000 3        23.000 3
G31  21713146.189 4 114103497.631 4     -1728.025 4        27.000 4
R02  24365156.395 3         0.000 3         0.000 3        19.000 3
R09  22004545.291 5         0.000 5         0.000 5        34.000 5
R10  19148882.275 3         0.000 3         0.000 3        19.000 3
R17  21931695.964 6         0.000 6         0.000 6        41.000 6
R19  22121626.673 5         0.000 5         0.000 5        32.000 5
R79  19238489.417 3         0.000 3         0.000 3        18.000 3
R81  20826135.913 3         0.000 3         0.000 3        20.000 3
> 2016 02 06 21 29 21.0000000  0 15      0.046322658000   
G02  22812557.601 5 119880718.689 5      1718.221 5        30.000 5
G05  25337357.830 4         0.000 4         0.000 4        24.000 4
G12  22541781.406 4 118458020.697 4      2676.279 4        27.000 4
G24  25333283.809 2         0.000 2         0.000 2        12.000 2
G25  20436833.978 5 107396674.614 5       829.535 5        30.000 5
G26  24999855.287 3         0.000 3         0.000 3        18.000 3
G29  20195638.883 3         0.000 3         0.000 3        23.000 3
G31  21712817.366 4 114101769.129 4     -1727.584 4        27.000 4
R02  24365458.030 1         0.000 1         0.000 1         4.000 1
R09  22005244.449 5         0.000 5         0.000 5        34.000 5
R10  19148986.099 3         0.000 3         0.000 3        20.000 3
R17  21932387.698 6         0.000 6         0.000 6        41.000 6
R19  22122337.866 5         0.000 5         0.000 5        32.000 5
R79  19238596.229 3         0.000 3         0.000 3        18.000 3
R81  20825561.883 3         0.000 3         0.000 3        20.000 3
> 2016 02 06 21 29 22.0000000  0 15      0.046382568000   
G02  22812884.424 5 119882436.516 5      1718.580 5        30.000 5
G05  25336876.349 4         0.000 4         0.000 4        24.000 4
G12  22542290.532 4 118460696.396 4      2676.392 4        27.000 4
G24  25334007.873 2         0.000 2         0.000 2        12.000 2
G25  20436991.852 5 107397503.905 5       830.089 5        30.000 5
G26  24999260.926 3         0.000 3         0.000 3        18.000 3
G29  20195462.092 3         0.000 3         0.000 3        23.000 3
G31  21712488.487 4 114100041.173 4     -1726.999 4        27.000 4
R02  24365804.942 3         0.000 3         0.000 3        19.000 3
R09  22005946.030 5         0.000 5         0.000 5        34.000 5
R10  19149090.139 3         0.000 3         0.000 3        20.000 3
R17  21933078.623 6         0.000 6         0.000 6        41.000 6
R19  22123049.137 5         0.000 5         0.000 5        32.000 5
R79  19238707.868 3         0.000 3         0.000 3        18.000 3
R81  20824979.474 3         0.000 3         0.000 3        20.000 3
> 2016 02 06 21 29 23.0000000  0 15      0.046442477000   
G02  22813211.644 5 119884156.189 5      1718.806 5        30.000 5
G05  25336393.881 4         0.000 4         0.000 4        24.000 4
G12  22542800.046 4 118463373.937 4      2676.618 4        27.000 4
G24  25334735.355 2         0.000 2         0.000 2        12.000 2
G25  20437150.037 5 107398334.988 5       830.263 5        30.000 5
G26  24998644.702 3         0.000 3         0.000 3        18.000 3
G29  20195291.378 3         0.000 3         0.000 3        23.000 3
G31  21712160.013 4 114098315.075 4     -1726.763 4        27.000 4
R02  24366204.062 3         0.000 3         0.000 3        19.000 3
R09  22006646.356 5         0.000 5         0.000 5        34.000 5
R10  19149195.465 3         0.000 3         0.000 3        20.000 3
R17  21933770.440 6         0.000 6         0.000 6        41.000 6
R19  22123758.788 5         0.000 5         0.000 5        32.000 5
R79  19238805.860 3         0.000 3         0.000 3        18.000 3
R81  20824377.368 3         0.000 3         0.000 3        20.000 3
> 2016 02 06 21 29 24.0000000  0 15      0.046502387000   
G02  22813538.758 5 119885874.941 5      1719.463 5        30.000 5
G05  25335903.697 4         0.000 4         0.000 4        24.000 4
G12  22543309.290 4 118466050.012 4      2676.721 4        27.000 4
G24  25335449.779 2         0.000 2         0.000 2        13.000 2
G25  20437308.012 5 107399164.919 5       830.695 5        30.000 5
G26  24998024.639 3         0.000 3         0.000 3        18.000 3
G29  20195115.548 3         0.000 3         0.000 3        23.000 3
G31  21711831.467 4 114096588.102 4     -1726.065 4        27.000 4
R02  24366530.638 3         0.000 3         0.000 3        20.000 3
R09  22007346.871 5         0.000 5         0.000 5        34.000 5
R10  19149299.035 3         0.000 3         0.000 3        20.000 3
R17  21934463.382 6         0.000 6         0.000 6        41.000 6
R19  22124468.126 5         0.000 5         0.000 5        32.000 5
R79  19238916.254 3         0.000 3         0.000 3        18.000 3
R81  20823831.956 3         0.000 3         0.000 3        20.000 3
> 2016 02 06 21 29 25.0000000  0 15      0.046562297000   
G02  22813865.924 5 119887594.067 5      1719.873 5        30.000 5
G05  25335411.743 4         0.000 4         0.000 4        24.000 4
G12  22543818.501 4 118468726.323 4      2676.998 4        27.000 4
G24  25336155.626 2         0.000 2         0.000 2        13.000 2
G25  20437466.023 5 107399995.151 5       831.033 5        30.000 5
G26  24997413.514 3         0.000 3         0.000 3        18.000 3
G29  20194947.102 3         0.000 3         0.000 3        22.000 3
G31  21711502.885 4 114094861.499 4     -1725.644 4        27.000 4
R02  24366821.709 3         0.000 3         0.000 3        20.000 3
R09  22008046.681 5         0.000 5         0.000 5        34.000 5
R10  19149403.109 3         0.000 3         0.000 3        21.000 3
R17  21935154.929 6         0.000 6         0.000 6        41.000 6
R19  22125179.325 5         0.000 5         0.000 5        32.000 5
R79  19239022.686 3         0.000 3         0.000 3        18.000 3
R81  20823248.285 3         0.000 3         0.000 3        20.000 3
> 2016 02 06 21 29 26.0000000  0 15      0.046622206000   
G02  22814193.439 5 119889315.187 5      1720.253 5        30.000 5
G05  25334940.314 4         0.000 4         0.000 4        24.000 4
G12  22544328.011 4 118471404.241 4      2676.988 4        27.000 4
G24  25336890.005 2         0.000 2         0.000 2        13.000 2
G25  20437624.440 5 107400827.375 5       831.413 5        30.000 5
G26  24996803.705 3         0.000 3         0.000 3        18.000 3
G29  20194777.435 3         0.000 3         0.000 3        22.000 3
G31  21711174.489 4 114093136.855 4     -1725.305 4        27.000 4
R02  24367193.467 3         0.000 3         0.000 3        20.000 3
R09  22008748.254 5         0.000 5         0.000 5        34.000 5
R10  19149509.723 3         0.000 3         0.000 3        21.000 3
R17  21935847.539 6         0.000 6         0.000 6        41.000 6
R19  22125888.046 5         0.000 5         0.000 5        32.000 5
R79  19239124.496 3         0.000 3         0.000 3        18.000 3
R81  20822679.606 3         0.000 3         0.000 3        20.000 3
> 2016 02 06 21 29 27.0000000  0 15      0.046682116000   
G02  22814520.813 5 119891035.138 5      1720.705 5        30.000 5
G05  25334442.838 4         0.000 4         0.000 4        24.000 4
G12  22544837.281 4 118474080.934 4      2677.388 4        26.000 4
G24  25337613.010 2         0.000 2         0.000 2        13.000 2
G25  20437782.602 5 107401658.431 5       831.854 5        30.000 5
G26  24996209.063 3         0.000 3         0.000 3        18.000 3
G29  20194602.878 3         0.000 3         0.000 3        22.000 3
G31  21710845.907 4 114091411.211 4     -1724.690 4        27.000 4
R02  24367577.600 3         0.000 3         0.000 3        20.000 3
R09  22009447.914 5         0.000 5         0.000 5        34.000 5
R10  19149610.623 3         0.000 3         0.000 3        21.000 3
R17  21936539.431 6         0.000 6         0.000 6        41.000 6
R19  22126597.734 5         0.000 5         0.000 5        32.000 5
R79  19239239.946 3         0.000 3         0.000 3        18.000 3
R81  20822087.961 3         0.000 3         0.000 3        20.000 3
> 2016 02 06 21 29 28.0000000  0 15      0.046742025000   
G02  22814848.552 5 119892757.192 5      1721.187 5        30.000 5
G05  25333963.301 4         0.000 4         0.000 4        24.000 4
G12  22545340.361 4         0.000 4         0.000 4        26.000 4
G24  25338339.844 2         0.000 2         0.000 2        13.000 2
G25  20437941.160 5 107402491.358 5       832.111 5        30.000 5
G26  24995589.737 3         0.000 3         0.000 3        18.000 3
G29  20194435.907 3         0.000 3         0.000 3        22.000 3
G31  21710517.857 4 114089687.691 4     -1724.187 4        27.000 4
R02  24367882.345 3         0.000 3         0.000 3        20.000 3
R09  22010147.539 5         0.000 5         0.000 5        34.000 5
R10  19149708.587 3         0.000 3         0.000 3        21.000 3
R17  21937231.976 6         0.000 6         0.000 6        41.000 6
R19  22127307.797 5         0.000 5         0.000 5        32.000 5
R79  19239361.145 3         0.000 3         0.000 3        18.000 3
R81  20821515.606 3         0.000 3         0.000 3        19.000 3
> 2016 02 06 21 29 29.0000000  0 15      0.046801935000   
G02  22815176.065 5 119894478.208 5      1721.721 5        30.000 5
G05  25333485.461 4         0.000 4         0.000 4        24.000 4
G12  22545852.943 4         0.000 4         0.000 4        26.000 4
G24  25339061.996 2         0.000 2         0.000 2        13.000 2
G25  20438099.523 5 107403323.239 5       832.645 5        30.000 5
G26  24994986.946 3         0.000 3         0.000 3        18.000 3
G29  20194265.711 3         0.000 3         0.000 3        22.000 3
G31  21710189.486 4 114087963.152 4     -1723.622 4        27.000 4
R02  24368245.978 3         0.000 3         0.000 3        20.000 3
R09  22010847.678 5         0.000 5         0.000 5        34.000 5
R10  19149818.957 3         0.000 3         0.000 3        21.000 3
R17  21937923.942 6         0.000 6         0.000 6        41.000 6
R19  22128019.267 5         0.000 5         0.000 5        32.000 5
R79  19239465.616 3         0.000 3         0.000 3        18.000 3
R81  20820944.426 3         0.000 3         0.000 3        19.000 3
> 2016 02 06 21 29 30.0000000  0 15      0.046861845000   
G02  22815503.609 5 119896199.629 5      1722.172 5        30.000 5
G05  25332991.549 4         0.000 4         0.000 4        24.000 4
G12  22546362.061 4         0.000 4         0.000 4        26.000 4
G24  25339782.420 2         0.000 2         0.000 2        13.000 2
G25  20438257.839 5 107404155.416 5       832.983 5        30.000 5
G26  24994379.725 3         0.000 3         0.000 3        18.000 3
G29  20194097.162 3         0.000 3         0.000 3        22.000 3
G31  21709854.825 4         0.000 4     -1723.088 4        26.000 4
R02  24368573.294 3         0.000 3         0.000 3        20.000 3
R09  22011547.094 5         0.000 5         0.000 5        34.000 5
R10  19149921.546 3         0.000 3         0.000 3        22.000 3
R17  21938615.611 6         0.000 6         0.000 6        41.000 6
R19  22128727.375 5         0.000 5         0.000 5        32.000 5
R79  19239572.990 3         0.000 3         0.000 3        18.000 3
R81  20820377.125 3         0.000 3         0.000 3        19.000 3
> 2016 02 06 21 29 31.0000000  0 15      0.046921755000   
G02  22815831.328 5 119897921.774 5      1722.850 5        30.000 5
G05  25332512.837 4         0.000 4         0.000 4        24.000 4
G12  22546871.709 4         0.000 4         0.000 4        25.000 4
G24  25340513.682 2         0.000 2         0.000 2        13.000 2
G25  20438416.287 5 107404988.256 5       833.599 5        30.000 5
G26  24993770.076 3         0.000 3         0.000 3        18.000 3
G29  20193922.113 3         0.000 3         0.000 3        22.000 3
G31  21709527.056 4         0.000 4         0.000 4        26.000 4
R02  24368915.189 1         0.000 1         0.000 1         0.000 1
R09  22012247.421 5         0.000 5         0.000 5        35.000 5
R10  19150032.071 3         0.000 3         0.000 3        22.000 3
R17  21939307.916 6         0.000 6         0.000 6        41.000 6
R19  22129437.813 5         0.000 5         0.000 5        32.000 5
R79  19239686.014 3         0.000 3         0.000 3        18.000 3
R81  20819775.006 3         0.000 3         0.000 3        19.000 3
> 2016 02 06 21 29 32.0000000  0 15      0.046981664000   
G02  22816159.355 5 119899646.041 5      1723.445 5        30.000 5
G05  25332038.466 4         0.000 4         0.000 4        24.000 4
G12  22547371.113 4         0.000 4         0.000 4        25.000 4
G24  25341226.159 2         0.000 2         0.000 2        12.000 2
G25  20438575.084 5 107405823.075 5       834.041 5        30.000 5
G26  24993163.982 3         0.000 3         0.000 3        18.000 3
G29  20193751.702 3         0.000 3         0.000 3        22.000 3
G31  21709200.381 4         0.000 4         0.000 4        26.000 4
R02  24369283.500 3         0.000 3         0.000 3        21.000 3
R09  22012947.448 5         0.000 5         0.000 5        35.000 5
R10  19150146.218 3         0.000 3         0.000 3        22.000 3
R17  21939999.577 6         0.000 6         0.000 6        41.000 6
R19  22130147.997 5         0.000 5         0.000 5        32.000 5
R79  19239801.680 3         0.000 3         0.000 3        19.000 3
R81  20819198.660 3         0.000 3         0.000 3        19.000 3
> 2016 02 06 21 29 33.0000000  0 14      0.047041574000   
G02  22816487.211 5 119901369.190 5      1723.856 5        30.000 5
G05  25331559.313 3         0.000 3         0.000 3        23.000 3
G12  22547884.673 4         0.000 4         0.000 4        25.000 4
G24  25341953.626 2         0.000 2         0.000 2        12.000 2
G25  20438733.758 5 107406656.739 5       834.420 5        30.000 5
G26  24992543.492 3         0.000 3         0.000 3        18.000 3
G29  20193574.660 3         0.000 3         0.000 3        22.000 3
R02  24369596.142 3         0.000 3         0.000 3        22.000 3
R09  22013646.347 5         0.000 5         0.000 5        35.000 5
R10  19150243.841 3         0.000 3         0.000 3        22.000 3
R17  21940692.436 6         0.000 6         0.000 6        41.000 6
R19  22130856.012 5         0.000 5         0.000 5        32.000 5
R79  19239912.862 3         0.000 3         0.000 3        19.000 3
R81  20818628.054 3         0.000 3         0.000 3        19.000 3
> 2016 02 06 21 29 34.0000000  0 15      0.047101484000   
G02  22816815.144 5 119903092.531 5      1724.051 5        30.000 5
G05  25331073.249 3         0.000 3         0.000 3        23.000 3
G12  22548393.603 4         0.000 4         0.000 4        25.000 4
G24  25342679.873 1         0.000 1         0.000 1        11.000 1
G25  20438892.429 5 107407490.584 5       834.605 5        30.000 5
G26  24991939.620 3         0.000 3         0.000 3        18.000 3
G29  20193399.669 3         0.000 3         0.000 3        22.000 3
G31  21708534.594 4         0.000 4         0.000 4        24.000 4
R02  24369971.506 3         0.000 3         0.000 3        22.000 3
R09  22014347.560 5         0.000 5         0.000 5        35.000 5
R10  19150345.822 3         0.000 3         0.000 3        22.000 3
R17  21941384.357 6         0.000 6         0.000 6        41.000 6
R19  22131565.869 5         0.000 5         0.000 5        32.000 5
R79  19240019.872 3         0.000 3         0.000 3        19.000 3
R81  20818048.100 3         0.000 3         0.000 3        19.000 3
> 2016 02 06 21 29 35.0000000  0 15      0.047161395000   
G02  22817142.840 5 119904814.815 5      1724.605 5        30.000 5
G05  25330589.081 3         0.000 3         0.000 3        20.000 3
G12  22548898.971 4         0.000 4         0.000 4        25.000 4
G24  25343384.856 2         0.000 2         0.000 2        12.000 2
G25  20439050.907 5 107408323.273 5       835.067 5        30.000 5
G26  24991328.673 3         0.000 3         0.000 3        18.000 3
G29  20193231.436 3         0.000 3         0.000 3        22.000 3
G31  21708223.540 4         0.000 4         0.000 4        25.000 4
R02  24370310.529 3         0.000 3         0.000 3        22.000 3
R09  22015047.681 5         0.000 5         0.000 5        35.000 5
R10  19150453.280 3         0.000 3         0.000 3        22.000 3
R17  21942076.844 6         0.000 6         0.000 6        41.000 6
R19  22132276.335 5         0.000 5         0.000 5        32.000 5
R79  19240128.285 3         0.000 3         0.000 3        19.000 3
R81  20817469.463 3         0.000 3         0.000 3        19.000 3
> 2016 02 06 21 29 36.0000000  0 15      0.047221305000   
G02  22817470.996 5 119906539.279 5      1725.169 5        30.000 5
G05  25330105.515 3         0.000 3         0.000 3        19.000 3
G12  22549415.017 4         0.000 4         0.000 4        24.000 4
G24  25344088.491 2         0.000 2         0.000 2        12.000 2
G25  20439209.749 5 107409158.006 5       835.488 5        30.000 5
G26  24990711.376 3         0.000 3         0.000 3        18.000 3
G29  20193057.511 3         0.000 3         0.000 3        22.000 3
G31  21707891.860 4         0.000 4         0.000 4        25.000 4
R02  24370619.649 3         0.000 3         0.000 3        22.000 3
R09  22015749.032 5         0.000 5         0.000 5        35.000 5
R10  19150553.861 3         0.000 3         0.000 3        23.000 3
R17  21942768.802 6         0.000 6         0.000 6        41.000 6
R19  22132986.498 5         0.000 5         0.000 5        32.000 5
R79  19240241.274 3         0.000 3         0.000 3        19.000 3
R81  20816903.650 3         0.000 3         0.000 3        19.000 3
> 2016 02 06 21 29 37.0000000  0 15      0.047281215000   
G02  22817799.304 5 119908264.543 5      1726.011 5        30.000 5
G05  25329612.298 3         0.000 3         0.000 3        19.000 3
G12  22549918.439 4         0.000 4         0.000 4        24.000 4
G24  25344817.597 2         0.000 2         0.000 2        12.000 2
G25  20439368.725 5 107409993.466 5       836.257 5        30.000 5
G26  24990094.442 3         0.000 3         0.000 3        18.000 3
G29  20192892.085 3         0.000 3         0.000 3        22.000 3
G31  21707580.464 4         0.000 4         0.000 4        26.000 4
R02  24371010.272 3         0.000 3         0.000 3        22.000 3
R09  22016450.238 5         0.000 5         0.000 5        35.000 5
R10  19150656.230 3         0.000 3         0.000 3        23.000 3
R17  21943461.846 6         0.000 6         0.000 6        41.000 6
R19  22133696.573 5         0.000 5         0.000 5        32.000 5
R79  19240348.190 3         0.000 3         0.000 3        19.000 3
R81  20816331.249 3         0.000 3         0.000 3        19.000 3
> 2016 02 06 21 29 38.0000000  0 15      0.047341126000   
G02  22818127.371 5 119909988.537 5      1726.278 5        30.000 5
G05  25329136.204 3         0.000 3         0.000 3        18.000 3
G12  22550427.041 4         0.000 4         0.000 4        24.000 4
G24  25345555.349 1         0.000 1         0.000 1        11.000 1
G25  20439527.427 5 107410827.600 5       836.473 5        30.000 5
G26  24989490.459 3         0.000 3         0.000 3        18.000 3
G29  20192719.354 3         0.000 3         0.000 3        22.000 3
G31  21707237.566 4         0.000 4         0.000 4        26.000 4
R02  24371341.661 3         0.000 3         0.000 3        22.000 3
R09  22017151.031 5         0.000 5         0.000 5        35.000 5
R10  19150762.854 3         0.000 3         0.000 3        23.000 3
R17  21944153.986 6         0.000 6         0.000 6        41.000 6
R19  22134406.302 5         0.000 5         0.000 5        32.000 5
R79  19240460.850 3         0.000 3         0.000 3        19.000 3
R81  20815753.590 3         0.000 3         0.000 3        19.000 3
> 2016 02 06 21 29 39.0000000  0 15      0.047401036000   
G02  22818455.900 5 119911714.770 5      1726.935 5        30.000 5
G05  25328638.320 3         0.000 3         0.000 3        18.000 3
G12  22550936.368 4         0.000 4         0.000 4        24.000 4
G24  25346297.199 2         0.000 2         0.000 2        12.000 2
G25  20439686.541 5 107411663.859 5       837.017 5        30.000 5
G26  24988870.889 3         0.000 3         0.000 3        18.000 3
G29  20192551.483 3         0.000 3         0.000 3        22.000 3
G31  21706908.126 4         0.000 4         0.000 4        26.000 4
R02  24371702.083 3         0.000 3         0.000 3        22.000 3
R09  22017850.655 5         0.000 5         0.000 5        35.000 5
R10  19150874.077 3         0.000 3         0.000 3        23.000 3
R17  21944847.180 6         0.000 6         0.000 6        41.000 6
R19  22135117.499 5         0.000 5         0.000 5        32.000 5
R79  19240576.221 3         0.000 3         0.000 3        19.000 3
R81  20815173.615 3         0.000 3         0.000 3        19.000 3
> 2016 02 06 21 29 40.0000000  0 15      0.047460946000   
G02  22818784.553 5 119913441.622 5      1727.602 5        30.000 5
G05  25328156.540 2         0.000 2         0.000 2        17.000 2
G12  22551440.380 3         0.000 3         0.000 3        23.000 3
G24  25347016.098 1         0.000 1         0.000 1        11.000 1
G25  20439845.798 5 107412500.637 5       837.582 5        30.000 5
G26  24988261.711 3         0.000 3         0.000 3        18.000 3
G29  20192390.415 3         0.000 3         0.000 3        22.000 3
G31  21706581.927 4         0.000 4         0.000 4        26.000 4
R02  24372005.670 3         0.000 3         0.000 3        23.000 3
R09  22018552.226 5         0.000 5         0.000 5        35.000 5
R10  19150981.165 3         0.000 3         0.000 3        23.000 3
R17  21945539.859 6         0.000 6         0.000 6        41.000 6
R19  22135830.488 5         0.000 5         0.000 5        32.000 5
R79  19240686.877 3         0.000 3         0.000 3        19.000 3
R81  20814600.342 3         0.000 3         0.000 3        19.000 3
> 2016 02 06 21 29 41.0000000  0 15      0.047520856000   
G02  22819113.261 5 119915168.981 5      1728.064 5        30.000 5
G05  25327673.078 2         0.000 2         0.000 2        17.000 2
G12  22551952.799 3         0.000 3         0.000 3        23.000 3
G24  25347770.313 1         0.000 1         0.000 1        11.000 1
G25  20440005.112 5 107413337.907 5       838.033 5        30.000 5
G26  24987646.471 3         0.000 3         0.000 3        18.000 3
G29  20192216.297 3         0.000 3         0.000 3        22.000 3
G31  21706251.044 4         0.000 4         0.000 4        26.000 4
R02  24372381.028 3         0.000 3         0.000 3        23.000 3
R09  22019253.086 5         0.000 5         0.000 5        35.000 5
R10  19151091.628 3         0.000 3         0.000 3        23.000 3
R17  21946234.390 6         0.000 6         0.000 6        41.000 6
R19  22136540.040 5         0.000 5         0.000 5        32.000 5
R79  19240795.225 3         0.000 3         0.000 3        20.000 3
R81  20814025.196 3         0.000 3         0.000 3        18.000 3
> 2016 02 06 21 29 42.0000000  0 15      0.047580766000   
G02  22819442.054 5 119916896.835 5      1728.597 5        30.000 5
G05  25327187.367 2         0.000 2         0.000 2        17.000 2
G12  22552474.287 3         0.000 3         0.000 3        23.000 3
G24  25348488.900 1         0.000 1         0.000 1        11.000 1
G25  20440164.551 5 107414175.504 5       838.403 5        30.000 5
G26  24987045.171 3         0.000 3         0.000 3        18.000 3
G29  20192039.306 3         0.000 3         0.000 3        22.000 3
G31  21705913.605 4         0.000 4         0.000 4        26.000 4
R02  24372713.372 3         0.000 3         0.000 3        23.000 3
R09  22019953.651 5         0.000 5         0.000 5        34.000 5
R10  19151194.159 3         0.000 3         0.000 3        23.000 3
R17  21946927.105 6         0.000 6         0.000 6        41.000 6
R19  22137253.047 5         0.000 5         0.000 5        31.000 5
R79  19240900.933 3         0.000 3         0.000 3        19.000 3
R81  20813457.183 3         0.000 3         0.000 3        18.000 3
> 2016 02 06 21 29 43.0000000  0 15      0.047640676000   
G02  22819770.922 5 119918625.022 5      1728.895 5        30.000 5
G05  25326695.050 2         0.000 2         0.000 2        17.000 2
G12  22552988.090 3         0.000 3         0.000 3        23.000 3
G24  25349208.828 1         0.000 1         0.000 1        11.000 1
G25  20440324.038 5 107415013.539 5       838.793 5        30.000 5
G26  24986440.660 3         0.000 3         0.000 3        18.000 3
G29  20191871.662 3         0.000 3         0.000 3        22.000 3
G31  21705593.119 4         0.000 4         0.000 4        25.000 4
R02  24373070.583 4         0.000 4         0.000 4        24.000 4
R09  22020654.914 5         0.000 5         0.000 5        34.000 5
R10  19151300.895 3         0.000 3         0.000 3        23.000 3
R17  21947620.331 6         0.000 6         0.000 6        41.000 6
R19  22137963.822 5         0.000 5         0.000 5        31.000 5
R79  19241016.375 3         0.000 3         0.000 3        20.000 3
R81  20812880.137 3         0.000 3         0.000 3        18.000 3
> 2016 02 06 21 29 44.0000000  0 15      0.047700586000   
G02  22820099.842 5 119920353.424 5      1729.111 5        30.000 5
G05  25326207.365 2         0.000 2         0.000 2        17.000 2
G12  22553502.492 3         0.000 3         0.000 3        23.000 3
G24  25349931.983 1         0.000 1         0.000 1        11.000 1
G25  20440483.500 5 107415851.558 5       838.782 5        30.000 5
G26  24985842.518 3         0.000 3         0.000 3        18.000 3
G29  20191710.526 3         0.000 3         0.000 3        22.000 3
G31  21705259.615 4         0.000 4         0.000 4        25.000 4
R02  24373400.999 4         0.000 4         0.000 4        24.000 4
R09  22021358.042 5         0.000 5         0.000 5        34.000 5
R10  19151404.409 3         0.000 3         0.000 3        23.000 3
R17  21948313.175 6         0.000 6         0.000 6        41.000 6
R19  22138672.954 5         0.000 5         0.000 5        32.000 5
R79  19241121.598 3         0.000 3         0.000 3        20.000 3
R81  20812305.433 3         0.000 3         0.000 3        18.000 3
> 2016 02 06 21 29 45.0000000  0 16      0.047760496000   
G02  22820428.950 5 119922082.692 5      1730.014 5        30.000 5
G05  25325734.701 2         0.000 2         0.000 2        17.000 2
G12  22554018.004 3         0.000 3         0.000 3        23.000 3
G14  24130379.040 1         0.000 1         0.000 1         4.000 1
G24  25350661.975 1         0.000 1         0.000 1        11.000 1
G25  20440643.056 5 107416690.421 5       839.665 5        30.000 5
G26  24985234.559 3         0.000 3         0.000 3        18.000 3
G29  20191535.151 3         0.000 3         0.000 3        22.000 3
G31  21704938.757 4         0.000 4         0.000 4        25.000 4
R02  24373769.305 4         0.000 4         0.000 4        24.000 4
R09  22022057.817 5         0.000 5         0.000 5        34.000 5
R10  19151516.873 3         0.000 3         0.000 3        23.000 3
R17  21949006.042 6         0.000 6         0.000 6        41.000 6
R19  22139385.391 5         0.000 5         0.000 5        32.000 5
R79  19241232.405 3         0.000 3         0.000 3        20.000 3
R81  20811727.824 3         0.000 3         0.000 3        18.000 3
> 2016 02 06 21 29 46.0000000  0 15      0.047820407000   
G02  22820757.859 5 119923811.104 5      1730.691 5        30.000 5
G05  25325245.329 2         0.000 2         0.000 2        17.000 2
G12  22554519.883 3         0.000 3         0.000 3        23.000 3
G24  25351377.929 1         0.000 1         0.000 1        11.000 1
G25  20440802.448 5 107417528.382 5       840.291 5        30.000 5
G26  24984621.593 3         0.000 3         0.000 3        18.000 3
G29  20191366.649 3         0.000 3         0.000 3        22.000 3
G31  21704613.111 4         0.000 4         0.000 4        25.000 4
R02  24374100.531 4         0.000 4         0.000 4        24.000 4
R09  22022759.763 5         0.000 5         0.000 5        34.000 5
R10  19151626.789 3         0.000 3         0.000 3        23.000 3
R17  21949698.589 6         0.000 6         0.000 6        41.000 6
R19  22140096.417 5         0.000 5         0.000 5        31.000 5
R79  19241347.825 3         0.000 3         0.000 3        20.000 3
R81  20811156.364 3         0.000 3         0.000 3        18.000 3
> 2016 02 06 21 29 47.0000000  0 15      0.047880317000   
G02  22821087.175 5 119925541.564 5      1731.204 5        30.000 5
G05  25324767.002 2         0.000 2         0.000 2        17.000 2
G12  22555027.457 3         0.000 3         0.000 3        23.000 3
G24  25352078.792 1         0.000 1         0.000 1        11.000 1
G25  20440962.188 5 107418368.257 5       840.681 5        30.000 5
G26  24984009.730 2         0.000 2         0.000 2        17.000 2
G29  20191209.917 3         0.000 3         0.000 3        22.000 3
G31  21704282.580 4         0.000 4         0.000 4        25.000 4
R02  24374454.325 4         0.000 4         0.000 4        24.000 4
R09  22023461.916 5         0.000 5         0.000 5        34.000 5
R10  19151728.856 3         0.000 3         0.000 3        23.000 3
R17  21950391.246 6         0.000 6         0.000 6        41.000 6
R19  22140804.857 5         0.000 5         0.000 5        31.000 5
R79  19241457.146 3         0.000 3         0.000 3        20.000 3
R81  20810571.480 3         0.000 3         0.000 3        18.000 3
> 2016 02 06 21 29 48.0000000  0 15      0.047940228000   
G02  22821416.262 5 119927270.834 5      1731.553 5        30.000 5
G05  25324283.526 2         0.000 2         0.000 2        17.000 2
G12  22555535.504 3         0.000 3         0.000 3        23.000 3
G24  25352796.240 1         0.000 1         0.000 1        11.000 1
G25  20441121.696 5 107419206.904 5       840.979 5        30.000 5
G26  24983395.301 2         0.000 2         0.000 2        17.000 2
G29  20191032.379 3         0.000 3         0.000 3        22.000 3
G31  21703953.893 4         0.000 4         0.000 4        25.000 4
R02  24374795.313 4         0.000 4         0.000 4        25.000 4
R09  22024164.327 5         0.000 5         0.000 5        34.000 5
R10  19151833.096 3         0.000 3         0.000 3        23.000 3
R17  21951085.412 6         0.000 6         0.000 6        41.000 6
R19  22141516.730 5         0.000 5         0.000 5        31.000 5
R79  19241575.644 3         0.000 3         0.000 3        20.000 3
R81  20809989.138 3         0.000 3         0.000 3        18.000 3
> 2016 02 06 21 29 49.0000000  0 16      0.048000138000   
G02  22821745.759 5 119929002.165 5      1732.036 5        30.000 5
G05  25323799.373 3         0.000 3         0.000 3        18.000 3
G12  22556045.949 3         0.000 3         0.000 3        23.000 3
G14  24132517.967 1         0.000 1         0.000 1         4.000 1
G24  25353521.956 1         0.000 1         0.000 1        10.000 1
G25  20441281.553 5 107420047.424 5       841.276 5        30.000 5
G26  24982787.696 2         0.000 2         0.000 2        17.000 2
G29  20190850.264 3         0.000 3         0.000 3        23.000 3
G31  21703634.973 4         0.000 4         0.000 4        26.000 4
R02  24375129.749 4         0.000 4         0.000 4        25.000 4
R09  22024865.752 5         0.000 5         0.000 5        35.000 5
R10  19151936.796 3         0.000 3         0.000 3        23.000 3
R17  21951777.906 6         0.000 6         0.000 6        41.000 6
R19  22142227.272 5         0.000 5         0.000 5        31.000 5
R79  19241686.964 3         0.000 3         0.000 3        20.000 3
R81  20809424.837 2         0.000 2         0.000 2        17.000 2
> 2016 02 06 21 29 50.0000000  0 16      0.048060049000   
G02  22822075.080 5 119930732.504 5      1732.662 5        30.000 5
G05  25323320.813 3         0.000 3         0.000 3        18.000 3
G12  22556553.620 3         0.000 3         0.000 3        23.000 3
G14  24133051.070 1         0.000 1         0.000 1         5.000 1
G24  25354232.852 1         0.000 1         0.000 1        10.000 1
G25  20441441.288 5 107420887.005 5       841.954 5        30.000 5
G26  24982162.504 2         0.000 2         0.000 2        17.000 2
G29  20190685.303 3         0.000 3         0.000 3        23.000 3
G31  21703319.263 4         0.000 4         0.000 4        26.000 4
R02  24375489.244 4         0.000 4         0.000 4        25.000 4
R09  22025567.592 5         0.000 5         0.000 5        35.000 5
R10  19152038.372 3         0.000 3         0.000 3        23.000 3
R17  21952470.855 6         0.000 6         0.000 6        41.000 6
R19  22142935.929 5         0.000 5         0.000 5        31.000 5
R79  19241806.043 3         0.000 3         0.000 3        20.000 3
R81  20808856.294 2         0.000 2         0.000 2        17.000 2
> 2016 02 06 21 29 51.0000000  0 16      0.048119960000   
G02  22822404.495 5 119932463.390 5      1733.165 5        30.000 5
G05  25322846.471 3         0.000 3         0.000 3        18.000 3
G12  22557069.304 3         0.000 3         0.000 3        23.000 3
G14  24133583.125 1         0.000 1         0.000 1         6.000 1
G24  25354955.403 1         0.000 1         0.000 1        10.000 1
G25  20441601.114 5 107421727.078 5       842.405 5        30.000 5
G26  24981550.064 2         0.000 2         0.000 2        17.000 2
G29  20190514.461 3         0.000 3         0.000 3        23.000 3
G31  21702996.981 4         0.000 4         0.000 4        26.000 4
R02  24375826.091 4         0.000 4         0.000 4        25.000 4
R09  22026269.666 5         0.000 5         0.000 5        35.000 5
R10  19152151.075 3         0.000 3         0.000 3        23.000 3
R17  21953163.684 6         0.000 6         0.000 6        41.000 6
R19  22143646.838 5         0.000 5         0.000 5        31.000 5
R79  19241922.365 3         0.000 3         0.000 3        20.000 3
R81  20808291.818 2         0.000 2         0.000 2        17.000 2
> 2016 02 06 21 29 52.0000000  0 16      0.048179871000   
G02  22822733.959 5 119934194.623 5      1733.514 5        30.000 5
G05  25322367.712 3         0.000 3         0.000 3        19.000 3
G12  22557583.631 3         0.000 3         0.000 3        23.000 3
G14  24134096.640 1         0.000 1         0.000 1         7.000 1
G24  25355682.153 1         0.000 1         0.000 1        10.000 1
G25  20441761.010 5 107422567.340 5       842.600 5        30.000 5
G26  24980939.163 2         0.000 2         0.000 2        17.000 2
G29  20190349.050 3         0.000 3         0.000 3        23.000 3
G31  21702678.152 4         0.000 4         0.000 4        26.000 4
R02  24376183.450 4         0.000 4         0.000 4        25.000 4
R09  22026971.325 5         0.000 5         0.000 5        35.000 5
R10  19152253.489 3         0.000 3         0.000 3        23.000 3
R17  21953857.409 6         0.000 6         0.000 6        41.000 6
R19  22144358.852 5         0.000 5         0.000 5        31.000 5
R79  19242046.875 3         0.000 3         0.000 3        20.000 3
R81  20807710.465 2         0.000 2         0.000 2        17.000 2
> 2016 02 06 21 29 53.0000000  0 16      0.048239781000   
G02  22823063.786 5 119935927.688 5      1733.811 5        30.000 5
G05  25321890.443 3         0.000 3         0.000 3        19.000 3
G12  22558097.095 3         0.000 3         0.000 3        23.000 3
G14  24134629.821 1         0.000 1         0.000 1         7.000 1
G24  25356407.108 1         0.000 1         0.000 1        11.000 1
G25  20441921.201 5 107423409.344 5       842.806 5        30.000 5
G26  24980325.556 2         0.000 2         0.000 2        17.000 2
G29  20190192.057 3         0.000 3         0.000 3        23.000 3
G31  21702353.082 4         0.000 4         0.000 4        26.000 4
R02  24376518.337 4         0.000 4         0.000 4        25.000 4
R09  22027671.779 5         0.000 5         0.000 5        35.000 5
R10  19152361.778 3         0.000 3         0.000 3        23.000 3
R17  21954551.658 6         0.000 6         0.000 6        41.000 6
R19  22145070.256 5         0.000 5         0.000 5        31.000 5
R79  19242144.713 3         0.000 3         0.000 3        20.000 3
R81  20807127.961 2         0.000 2         0.000 2        17.000 2
> 2016 02 06 21 29 54.0000000  0 16      0.048299692000   
G02  22823393.444 5 119937659.781 5      1734.376 5        30.000 5
G05  25321407.687 3         0.000 3         0.000 3        19.000 3
G12  22558610.033 3         0.000 3         0.000 3        23.000 3
G14  24135165.622 1         0.000 1         0.000 1         7.000 1
G24  25357130.598 1         0.000 1         0.000 1        11.000 1
G25  20442081.219 5 107424250.323 5       843.309 5        30.000 5
G26  24979705.560 2         0.000 2         0.000 2        17.000 2
G29  20190027.205 3         0.000 3         0.000 3        23.000 3
G31  21702030.338 4         0.000 4         0.000 4        26.000 4
R02  24376857.570 4         0.000 4         0.000 4        26.000 4
R09  22028373.851 5         0.000 5         0.000 5        35.000 5
R10  19152476.895 3         0.000 3         0.000 3        23.000 3
R17  21955246.344 6         0.000 6         0.000 6        41.000 6
R19  22145784.028 5         0.000 5         0.000 5        31.000 5
R79  19242260.373 3         0.000 3         0.000 3        20.000 3
R81  20806555.697 3         0.000 3         0.000 3        18.000 3
> 2016 02 06 21 29 55.0000000  0 16      0.048359602000   
G02  22823723.460 5 119939393.736 5      1734.704 5        30.000 5
G05  25320924.861 3         0.000 3         0.000 3        20.000 3
G12  22559120.113 3         0.000 3         0.000 3        23.000 3
G14  24135684.131 1         0.000 1         0.000 1         7.000 1
G24  25357858.670 1         0.000 1         0.000 1        10.000 1
G25  20442241.612 5 107425093.087 5       843.565 5        30.000 5
G26  24979100.411 2         0.000 2         0.000 2        17.000 2
G29  20189855.249 3         0.000 3         0.000 3        23.000 3
G31  21701705.317 4         0.000 4         0.000 4        27.000 4
R02  24377216.734 4         0.000 4         0.000 4        26.000 4
R09  22029075.375 5         0.000 5         0.000 5        35.000 5
R10  19152585.757 3         0.000 3         0.000 3        23.000 3
R17  21955939.161 6         0.000 6         0.000 6        41.000 6
R19  22146495.945 5         0.000 5         0.000 5        31.000 5
R79  19242376.931 3         0.000 3         0.000 3        20.000 3
R81  20805982.384 3         0.000 3         0.000 3        18.000 3
> 2016 02 06 21 29 56.0000000  0 16      0.048419513000   
G02  22824053.223 5 119941126.353 5      1734.899 5        30.000 5
G05  25320442.040 3         0.000 3         0.000 3        20.000 3
G12  22559626.930 3         0.000 3         0.000 3        23.000 3
G14  24136217.409 1         0.000 1         0.000 1         7.000 1
G24  25358582.499 1         0.000 1         0.000 1        10.000 1
G25  20442401.707 5 107425934.417 5       843.668 5        30.000 5
G26  24978493.412 2         0.000 2         0.000 2        17.000 2
G29  20189684.194 3         0.000 3         0.000 3        23.000 3
G31  21701377.547 4         0.000 4     -1709.058 4        27.000 4
R02  24377560.487 4         0.000 4         0.000 4        26.000 4
R09  22029777.369 5         0.000 5         0.000 5        35.000 5
R10  19152694.477 3         0.000 3         0.000 3        22.000 3
R17  21956633.286 6         0.000 6         0.000 6        41.000 6
R19  22147207.304 5         0.000 5         0.000 5        31.000 5
R79  19242485.414 3         0.000 3         0.000 3        20.000 3
R81  20805412.551 3         0.000 3         0.000 3        18.000 3
> 2016 02 06 21 29 57.0000000  0 16      0.048479423000   
G02  22824383.400 5 119942861.071 5      1735.423 5        30.000 5
G05  25319955.364 3         0.000 3         0.000 3        21.000 3
G12  22560131.048 3         0.000 3         0.000 3        23.000 3
G14  24136760.820 1         0.000 1         0.000 1         8.000 1
G24  25359312.343 1         0.000 1         0.000 1        10.000 1
G25  20442562.220 5 107426777.780 5       844.120 5        30.000 5
G26  24977874.902 2         0.000 2         0.000 2        17.000 2
G29  20189509.834 3         0.000 3         0.000 3        23.000 3
G31  21701052.500 4 114039661.879 4     -1708.842 4        27.000 4
R02  24377910.287 4         0.000 4         0.000 4        26.000 4
R09  22030481.548 5         0.000 5         0.000 5        35.000 5
R10  19152804.422 3         0.000 3         0.000 3        22.000 3
R17  21957327.272 6         0.000 6         0.000 6        41.000 6
R19  22147918.950 5         0.000 5         0.000 5        31.000 5
R79  19242602.885 3         0.000 3         0.000 3        20.000 3
R81  20804840.356 3         0.000 3         0.000 3        18.000 3
> 2016 02 06 21 29 58.0000000  0 16      0.048539334000   
G02  22824713.282 5 119944594.449 5      1735.700 5        30.000 5
G05  25319478.762 3         0.000 3         0.000 3        21.000 3
G12  22560640.659 3         0.000 3         0.000 3        22.000 3
G14  24137296.635 1         0.000 1         0.000 1         8.000 1
G24  25360038.748 1         0.000 1         0.000 1        10.000 1
G25  20442722.502 5 107427619.850 5       844.448 5        30.000 5
G26  24977259.950 2         0.000 2         0.000 2        17.000 2
G29  20189352.263 3         0.000 3         0.000 3        23.000 3
G31  21700726.386 4 114037951.089 4     -1708.257 4        27.000 4
R02  24378250.450 4         0.000 4         0.000 4        26.000 4
R09  22031181.210 5         0.000 5         0.000 5        35.000 5
R10  19152914.716 3         0.000 3         0.000 3        22.000 3
R17  21958021.034 6         0.000 6         0.000 6        40.000 6
R19  22148629.061 5         0.000 5         0.000 5        31.000 5
R79  19242720.623 3         0.000 3         0.000 3        20.000 3
R81  20804264.467 3         0.000 3         0.000 3        18.000 3
> 2016 02 06 21 29 59.0000000  0 16      0.048599244000   
G02  22825043.623 5 119946330.203 5      1736.459 5        30.000 5
G05  25318993.132 3         0.000 3         0.000 3        21.000 3
G12  22561143.886 3         0.000 3         0.000 3        22.000 3
G14  24137835.539 1         0.000 1         0.000 1         8.000 1
G24  25360757.957 1         0.000 1         0.000 1         9.000 1
G25  20442883.176 5 107428464.048 5       844.961 5        30.000 5
G26  24976656.457 2         0.000 2         0.000 2        17.000 2
G29  20189180.537 3         0.000 3         0.000 3        23.000 3
G31  21700401.015 4 114036242.661 4     -1707.518 4        28.000 4
R02  24378598.336 4         0.000 4         0.000 4        26.000 4
R09  22031883.449 5         0.000 5         0.000 5        35.000 5
R10  19153029.935 3         0.000 3         0.000 3        22.000 3
R17  21958715.370 6         0.000 6         0.000 6        40.000 6
R19  22149339.446 5         0.000 5         0.000 5        32.000 5
R79  19242842.567 3         0.000 3         0.000 3        20.000 3
R81  20803687.301 3         0.000 3         0.000 3        18.000 3
> 2016 02 06 21 30  0.0000000  0 16      0.048659155000   
G02  22825373.742 5 119948064.821 5      1736.942 5        30.000 5
G05  25318516.198 3         0.000 3         0.000 3        22.000 3
G12  22561656.584 3         0.000 3         0.000 3        22.000 3
G14  24138368.583 1         0.000 1         0.000 1         8.000 1
G24  25361471.845 1         0.000 1         0.000 1        10.000 1
G25  20443043.630 5 107429307.165 5       845.495 5        30.000 5
G26  24976042.099 2         0.000 2         0.000 2        17.000 2
G29  20189003.053 3         0.000 3         0.000 3        23.000 3
G31  21700075.018 4 114034533.242 4     -1706.892 4        28.000 4
R02  24378952.875 4         0.000 4         0.000 4        26.000 4
R09  22032586.314 5         0.000 5         0.000 5        35.000 5
R10  19153132.529 3         0.000 3         0.000 3        22.000 3
R17  21959409.520 6         0.000 6         0.000 6        40.000 6
R19  22150048.626 5         0.000 5         0.000 5        31.000 5
R79  19242948.408 3         0.000 3         0.000 3        20.000 3
R81  20803123.798 3         0.000 3         0.000 3        18.000 3
> 2016 02 06 21 30  1.0000000  0 16      0.048719065000   
G02  22825704.286 5 119949801.722 5      1737.609 5        30.000 5
G05  25318037.899 3         0.000 3         0.000 3        22.000 3
G12  22562181.613 3         0.000 3         0.000 3        22.000 3
G14  24138905.194 1         0.000 1         0.000 1         8.000 1
G24  25362203.008 1         0.000 1         0.000 1         9.000 1
G25  20443204.463 5 107430152.267 5       845.864 5        30.000 5
G26  24975432.937 2         0.000 2         0.000 2        17.000 2
G29  20188840.244 3         0.000 3         0.000 3        23.000 3
G31  21699749.958 4 114032826.003 4     -1706.328 4        28.000 4
R02  24379301.380 4         0.000 4         0.000 4        26.000 4
R09  22033289.803 5         0.000 5         0.000 5        35.000 5
R10  19153237.143 3         0.000 3         0.000 3        22.000 3
R17  21960103.789 6         0.000 6         0.000 6        40.000 6
R19  22150762.129 5         0.000 5         0.000 5        31.000 5
R79  19243066.513 3         0.000 3         0.000 3        20.000 3
R81  20802549.665 3         0.000 3         0.000 3        19.000 3
> 2016 02 06 21 30  2.0000000  0 16      0.048778975000   
G02  22826034.854 5 119951538.702 5      1737.681 5        30.000 5
G05  25317552.813 3         0.000 3         0.000 3        22.000 3
G12  22562696.172 3         0.000 3         0.000 3        22.000 3
G14  24139437.418 1         0.000 1         0.000 1         8.000 1
G24  25362934.746 1         0.000 1         0.000 1         9.000 1
G25  20443365.326 5 107430997.613 5       846.100 5        30.000 5
G26  24974833.482 2         0.000 2         0.000 2        17.000 2
G29  20188671.509 3         0.000 3         0.000 3        23.000 3
G31  21699425.282 4 114031118.950 4     -1706.143 4        28.000 4
R02  24379649.864 4         0.000 4         0.000 4        26.000 4
R09  22033991.904 5         0.000 5         0.000 5        35.000 5
R10  19153342.824 3         0.000 3         0.000 3        22.000 3
R17  21960798.463 6         0.000 6         0.000 6        40.000 6
R19  22151474.153 5         0.000 5         0.000 5        31.000 5
R79  19243171.704 3         0.000 3         0.000 3        20.000 3
R81  20801979.078 3         0.000 3         0.000 3        19.000 3
> 2016 02 06 21 30  3.0000000  0 16      0.048838885000   
G02  22826365.533 5 119953276.189 5      1738.235 5        30.000 5
G05  25317064.595 3         0.000 3         0.000 3        23.000 3
G12  22563209.798 3         0.000 3         0.000 3        22.000 3
G14  24139947.983 1         0.000 1         0.000 1         8.000 1
G24  25363676.968 1         0.000 1         0.000 1        10.000 1
G25  20443526.276 5 107431843.361 5       846.552 5        30.000 5
G26  24974225.418 2         0.000 2         0.000 2        17.000 2
G29  20188506.550 3         0.000 3         0.000 3        23.000 3
G31  21699100.871 4 114029412.430 4     -1705.568 4        28.000 4
R02  24379992.412 4         0.000 4         0.000 4        26.000 4
R09  22034695.321 5         0.000 5         0.000 5        35.000 5
R10  19153453.407 3         0.000 3         0.000 3        22.000 3
R17  21961493.268 6         0.000 6         0.000 6        40.000 6
R19  22152184.998 5         0.000 5         0.000 5        31.000 5
R79  19243284.083 3         0.000 3         0.000 3        20.000 3
R81  20801403.758 3         0.000 3         0.000 3        19.000 3
> 2016 02 06 21 30  4.0000000  0 16      0.048898795000   
G02  22826696.265 5 119955013.999 5      1738.512 5        30.000 5
G05  25316580.521 3         0.000 3         0.000 3        23.000 3
G12  22563706.740 3         0.000 3         0.000 3        21.000 3
G14  24140458.387 1         0.000 1         0.000 1         9.000 1
G24  25364417.806 1         0.000 1         0.000 1         9.000 1
G25  20443687.224 5 107432689.192 5       846.593 5        30.000 5
G26  24973602.307 2         0.000 2         0.000 2        17.000 2
G29  20188344.242 3         0.000 3         0.000 3        23.000 3
G31  21698776.609 4 114027706.195 4     -1705.322 4        29.000 4
R02  24380338.448 4         0.000 4         0.000 4        26.000 4
R09  22035397.894 5         0.000 5         0.000 5        35.000 5
R10  19153564.898 3         0.000 3         0.000 3        22.000 3
R17  21962186.606 6         0.000 6         0.000 6        40.000 6
R19  22152894.359 5         0.000 5         0.000 5        31.000 5
R79  19243408.125 3         0.000 3         0.000 3        20.000 3
R81  20800827.857 3         0.000 3         0.000 3        19.000 3
> 2016 02 06 21 30  5.0000000  0 16      0.048958705000   
G02  22827027.095 4 119956752.445 4      1739.149 4        29.000 4
G05  25316106.038 3         0.000 3         0.000 3        23.000 3
G12  22564220.873 3         0.000 3         0.000 3        21.000 3
G14  24140993.724 1         0.000 1         0.000 1         8.000 1
G24  25365121.806 1         0.000 1         0.000 1        10.000 1
G25  20443848.308 5 107433535.632 5       847.199 5        30.000 5
G26  24972976.736 2         0.000 2         0.000 2        17.000 2
G29  20188161.560 3         0.000 3         0.000 3        23.000 3
G31  21698452.329 4 114026000.686 4     -1704.593 4        29.000 4
R02  24380683.357 4         0.000 4         0.000 4        26.000 4
R09  22036100.919 5         0.000 5         0.000 5        35.000 5
R10  19153665.513 3         0.000 3         0.000 3        22.000 3
R17  21962881.596 6         0.000 6         0.000 6        40.000 6
R19  22153607.069 5         0.000 5         0.000 5        32.000 5
R79  19243524.219 3         0.000 3         0.000 3        20.000 3
R81  20800261.181 3         0.000 3         0.000 3        19.000 3
> 2016 02 06 21 30  6.0000000  0 16      0.049018615000   
G02  22827357.998 4 119958491.357 4      1739.662 4        29.000 4
G05  25315628.978 3         0.000 3         0.000 3        23.000 3
G12  22564726.191 3         0.000 3         0.000 3        21.000 3
G14  24141534.373 1         0.000 1         0.000 1         8.000 1
